{
    "universities": [
        {"name": "Harvard University", "lat": 42.3770, "lon": -71.1167},
        {"name": "University of Oxford", "lat": 51.7548, "lon": -1.2540},
        {"name": "Tsinghua University", "lat": 40.0005, "lon": 116.3264},
        {"name": "Stanford University", "lat": 37.4275, "lon": -122.1697},
        {"name": "MIT", "lat": 42.3601, "lon": -71.0942},
        {"name": "University of Cambridge", "lat": 52.2043, "lon": 0.1149},
        {"name": "ETH Zurich", "lat": 47.3769, "lon": 8.5481},
        {"name": "University of Tokyo", "lat": 35.7126, "lon": 139.7628},
        {"name": "Princeton University", "lat": 40.3431, "lon": -74.6601},
        {"name": "UC Berkeley", "lat": 37.8719, "lon": -122.2585},
        {"name": "Yale University", "lat": 41.3163, "lon": -72.9223},
        {"name": "Caltech", "lat": 34.1377, "lon": -118.1253},
        {"name": "Imperial College London", "lat": 51.4988, "lon": -0.1749},
        {"name": "Peking University", "lat": 39.9869, "lon": 116.3059},
        {"name": "University of Chicago", "lat": 41.7886, "lon": -87.5987},
        {"name": "National University of Singapore", "lat": 1.2966, "lon": 103.7764},
        {"name": "UCLA", "lat": 34.0689, "lon": -118.4452},
        {"name": "University of Toronto", "lat": 43.6629, "lon": -79.3957},
        {"name": "Seoul National University", "lat": 37.4602, "lon": 126.9519},
        {"name": "Sorbonne University", "lat": 48.8503, "lon": 2.3431},
        {"name": "Columbia University", "lat": 40.8075, "lon": -73.9626},
        {"name": "University College London (UCL)", "lat": 51.5246, "lon": -0.1340},
        {"name": "University of Melbourne", "lat": -37.7964, "lon": 144.9612},
        {"name": "Kyoto University", "lat": 35.0261, "lon": 135.7808},
        {"name": "University of Hong Kong", "lat": 22.2830, "lon": 114.1370},
        {"name": "University of Edinburgh", "lat": 55.9474, "lon": -3.1872},
        {"name": "University of Munich (LMU)", "lat": 48.1508, "lon": 11.5802},
        {"name": "University of Sydney", "lat": -33.8886, "lon": 151.1873},
        {"name": "Fudan University", "lat": 31.2989, "lon": 121.4992},
        {"name": "University of Copenhagen", "lat": 55.6805, "lon": 12.5722},
        {"name": "McGill University", "lat": 45.5048, "lon": -73.5772},
        {"name": "University of Amsterdam", "lat": 52.3680, "lon": 4.8897},
        {"name": "Australian National University", "lat": -35.2778, "lon": 149.1185},
        {"name": "University of Zurich", "lat": 47.3748, "lon": 8.5481},
        {"name": "University of Bristol", "lat": 51.4569, "lon": -2.6024},
        {"name": "Shanghai Jiao Tong University", "lat": 31.0252, "lon": 121.4355},
        {"name": "University of Oslo", "lat": 59.9399, "lon": 10.7209},
        {"name": "University of Heidelberg", "lat": 49.4109, "lon": 8.7065},
        {"name": "University of British Columbia", "lat": 49.2606, "lon": -123.2460},
        {"name": "Zhejiang University", "lat": 30.2626, "lon": 120.1224},
        {"name": "Cornell University", "lat": 42.4534, "lon": -76.4735},
        {"name": "University of Pennsylvania", "lat": 39.9522, "lon": -75.1932},
        {"name": "Johns Hopkins University", "lat": 39.3299, "lon": -76.6205},
        {"name": "University of Manchester", "lat": 53.4668, "lon": -2.2339},
        {"name": "University of Southern California (USC)", "lat": 34.0224, "lon": -118.2851},
        {"name": "University of Warwick", "lat": 52.3793, "lon": -1.5619},
        {"name": "Nanyang Technological University", "lat": 1.3483, "lon": 103.6831},
        {"name": "University of Wisconsin-Madison", "lat": 43.0766, "lon": -89.4125},
        {"name": "University of Queensland", "lat": -27.4975, "lon": 153.0137},
        {"name": "University of Geneva", "lat": 46.1990, "lon": 6.1443},
        {"name": "University of Helsinki", "lat": 60.1726, "lon": 24.9510},
        {"name": "University of Texas at Austin", "lat": 30.2849, "lon": -97.7341},
        {"name": "University of Glasgow", "lat": 55.8721, "lon": -4.2892},
        {"name": "Waseda University", "lat": 35.7090, "lon": 139.7200},
        {"name": "University of Cape Town", "lat": -33.9576, "lon": 18.4612},
        {"name": "University of São Paulo", "lat": -23.5614, "lon": -46.7308},
        {"name": "University of Vienna", "lat": 48.2132, "lon": 16.3601},
        {"name": "University of Leeds", "lat": 53.8067, "lon": -1.5550},
        {"name": "University of Alberta", "lat": 53.5268, "lon": -113.5247},
        {"name": "University of Auckland", "lat": -36.8485, "lon": 174.7633},
        {"name": "University of Illinois Urbana-Champaign", "lat": 40.1019, "lon": -88.2272},
        {"name": "University of Bonn", "lat": 50.7339, "lon": 7.1033},
        {"name": "University of Barcelona", "lat": 41.3865, "lon": 2.1639},
        {"name": "University of Bologna", "lat": 44.4972, "lon": 11.3538},
        {"name": "Pontifical Catholic University of Chile", "lat": -33.4412, "lon": -70.6408},
        {"name": "University of Nottingham", "lat": 52.9390, "lon": -1.1907},
        {"name": "University of Sheffield", "lat": 53.3811, "lon": -1.4882},
        {"name": "University of Malaya", "lat": 3.1209, "lon": 101.6538},
        {"name": "University of Stockholm", "lat": 59.3630, "lon": 18.0583},
        {"name": "University of Buenos Aires", "lat": -34.5997, "lon": -58.3731}
    ],
    "museums": [
        {"name": "The Louvre", "lat": 48.8606, "lon": 2.3376},
        {"name": "The British Museum", "lat": 51.5194, "lon": -0.1270},
        {"name": "The Metropolitan Museum of Art", "lat": 40.7794, "lon": -73.9632},
        {"name": "Vatican Museums", "lat": 41.9065, "lon": 12.4534},
        {"name": "State Hermitage Museum", "lat": 59.9398, "lon": 30.3146},
        {"name": "National Museum of China", "lat": 39.9037, "lon": 116.3951},
        {"name": "Museo del Prado", "lat": 40.4138, "lon": -3.6921},
        {"name": "Smithsonian National Air and Space Museum", "lat": 38.8882, "lon": -77.0199},
        {"name": "Rijksmuseum", "lat": 52.3600, "lon": 4.8852},
        {"name": "Egyptian Museum", "lat": 30.0478, "lon": 31.2336},
        {"name": "Tokyo National Museum", "lat": 35.7189, "lon": 139.7756},
        {"name": "National Museum of Natural History", "lat": 38.8913, "lon": -77.0261},
        {"name": "Acropolis Museum", "lat": 37.9684, "lon": 23.7285},
        {"name": "Museo Nacional de Antropología", "lat": 19.4260, "lon": -99.1863},
        {"name": "Pergamon Museum", "lat": 52.5210, "lon": 13.3965},
        {"name": "National Museum of Korea", "lat": 37.5239, "lon": 126.9751},
        {"name": "Australian Museum", "lat": -33.8742, "lon": 151.2135},
        {"name": "Indian Museum", "lat": 22.5580, "lon": 88.3509},
        {"name": "Museum of Tomorrow", "lat": -22.8951, "lon": -43.1803},
        {"name": "Canadian Museum of History", "lat": 45.4295, "lon": -75.7090},
        {"name": "National Palace Museum", "lat": 25.1024, "lon": 121.5485},
        {"name": "Victoria and Albert Museum", "lat": 51.4966, "lon": -0.1722},
        {"name": "Smithsonian American Art Museum", "lat": 38.8977, "lon": -77.0230},
        {"name": "Musee de l'Orangerie", "lat": 48.8639, "lon": 2.3226},
        {"name": "Museum of Anthropology (UBC)", "lat": 49.2698, "lon": -123.2590},
        {"name": "National Museum of Anthropology (Philippines)", "lat": 14.5846, "lon": 120.9759},
        {"name": "Berlin State Museums (Museum Island)", "lat": 52.5210, "lon": 13.4016},
        {"name": "National Museum of Singapore", "lat": 1.2966, "lon": 103.8486},
        {"name": "Museo Soumaya", "lat": 19.4406, "lon": -99.2049},
        {"name": "Royal Ontario Museum", "lat": 43.6677, "lon": -79.3948},
        {"name": "National Museum of Ireland", "lat": 53.3404, "lon": -6.2550},
        {"name": "Shanghai Museum", "lat": 31.2304, "lon": 121.4700},
        {"name": "Museu Nacional (Brazil)", "lat": -22.9058, "lon": -43.2260},
        {"name": "Museum of New Zealand Te Papa", "lat": -41.2904, "lon": 174.7821},
        {"name": "National Museum of Denmark", "lat": 55.6747, "lon": 12.5746},
        {"name": "Hermitage Museum (Amsterdam Branch)", "lat": 52.3651, "lon": 4.9028},
        {"name": "National Archaeological Museum (Athens)", "lat": 37.9890, "lon": 23.7328},
        {"name": "Israel Museum", "lat": 31.7725, "lon": 35.2046},
        {"name": "National Museum of Thailand", "lat": 13.7576, "lon": 100.4922},
        {"name": "Museum of Islamic Art (Doha)", "lat": 25.2953, "lon": 51.5391},
        {"name": "Field Museum (Chicago)", "lat": 41.8663, "lon": -87.6170},
        {"name": "National Museum of Scotland", "lat": 55.9470, "lon": -3.1900},
        {"name": "Museo Galileo", "lat": 43.7678, "lon": 11.2558},
        {"name": "National Museum of Finland", "lat": 60.1749, "lon": 24.9355},
        {"name": "Museo de Arte Precolombino (Cusco)", "lat": -13.5167, "lon": -71.9780},
        {"name": "National Museum of Anthropology (Madrid)", "lat": 40.4080, "lon": -3.6885},
        {"name": "Museum of the City of New York", "lat": 40.7925, "lon": -73.9519},
        {"name": "National Museum of Qatar", "lat": 25.2876, "lon": 51.5488},
        {"name": "Kyoto National Museum", "lat": 34.9874, "lon": 135.7629},
        {"name": "Museo de las Americas (San Juan)", "lat": 18.4663, "lon": -66.1168},
        {"name": "National Museum of Iceland", "lat": 64.1420, "lon": -21.9480},
        {"name": "Museum of South Australia", "lat": -34.9205, "lon": 138.6033},
        {"name": "Museum of Contemporary Art (Tokyo)", "lat": 35.6902, "lon": 139.7050},
        {"name": "National Museum of Beirut", "lat": 33.8789, "lon": 35.5150},
        {"name": "Museo Chileno de Arte Precolombino", "lat": -33.4399, "lon": -70.6524},
        {"name": "National Museum of Ethiopia", "lat": 9.0369, "lon": 38.7618},
        {"name": "Museum of African Art (Belgrade)", "lat": 44.8156, "lon": 20.4275},
        {"name": "National Museum of Cambodia", "lat": 11.5678, "lon": 104.9312},
        {"name": "Museo de Oro (Bogotá)", "lat": 4.6018, "lon": -74.0720},
        {"name": "National Museum of Anthropology (Luanda)", "lat": -8.8132, "lon": 13.2318},
        {"name": "Museum of the History of Science (Oxford)", "lat": 51.7545, "lon": -1.2550},
        {"name": "National Museum of Brazil (before fire)", "lat": -22.9058, "lon": -43.2260},
        {"name": "Museo de la Nación (Lima)", "lat": -12.0870, "lon": -77.0018},
        {"name": "National Museum of Mongolia", "lat": 47.9212, "lon": 106.9177},
        {"name": "Museum of the Revolution (Havana)", "lat": 23.1416, "lon": -82.3560},
        {"name": "National Museum of Afghanistan", "lat": 34.4678, "lon": 69.1200},
        {"name": "Museum of Turkish and Islamic Arts", "lat": 41.0062, "lon": 28.9652},
        {"name": "National Museum of Western Art (Tokyo)", "lat": 35.7156, "lon": 139.7758},
        {"name": "Museo de Arte Colonial (Caracas)", "lat": 10.5061, "lon": -66.9156},
        {"name": "National Museum of Uzbekistan", "lat": 41.3004, "lon": 69.2710}
    ],
    "art_galleries": [
        {"name": "Uffizi Gallery", "lat": 43.7678, "lon": 11.2558},
        {"name": "National Gallery", "lat": 51.5089, "lon": -0.1283},
        {"name": "Museum of Modern Art (MoMA)", "lat": 40.7614, "lon": -73.9776},
        {"name": "Centre Pompidou", "lat": 48.8606, "lon": 2.3522},
        {"name": "Guggenheim Museum Bilbao", "lat": 43.2687, "lon": -2.9339},
        {"name": "Tate Modern", "lat": 51.5076, "lon": -0.0994},
        {"name": "Galleria dell'Accademia", "lat": 43.7769, "lon": 11.2588},
        {"name": "Van Gogh Museum", "lat": 52.3584, "lon": 4.8811},
        {"name": "Musee d'Orsay", "lat": 48.8600, "lon": 2.3255},
        {"name": "The Whitney Museum of American Art", "lat": 40.7396, "lon": -74.0089},
        {"name": "National Gallery of Victoria", "lat": -37.8226, "lon": 144.9689},
        {"name": "Reina Sofia Museum", "lat": 40.4080, "lon": -3.6947},
        {"name": "Kunsthistorisches Museum", "lat": 48.2036, "lon": 16.3616},
        {"name": "Hermitage Amsterdam", "lat": 52.3651, "lon": 4.9028},
        {"name": "Art Gallery of Ontario", "lat": 43.6536, "lon": -79.3925},
        {"name": "Pushkin State Museum of Fine Arts", "lat": 55.7472, "lon": 37.6051},
        {"name": "National Gallery of Art", "lat": 38.8910, "lon": -77.0200},
        {"name": "Peggy Guggenheim Collection", "lat": 45.4308, "lon": 12.3311},
        {"name": "Thyssen-Bornemisza Museum", "lat": 40.4160, "lon": -3.6949},
        {"name": "Art Institute of Chicago", "lat": 41.8796, "lon": -87.6237},
        {"name": "Tate Britain", "lat": 51.4910, "lon": -0.1278},
        {"name": "Guggenheim Museum (New York)", "lat": 40.7830, "lon": -73.9590},
        {"name": "Museo Nacional de Bellas Artes (Buenos Aires)", "lat": -34.5840, "lon": -58.3928},
        {"name": "Stedelijk Museum", "lat": 52.3580, "lon": 4.8798},
        {"name": "Galleria Borghese", "lat": 41.9142, "lon": 12.4923},
        {"name": "Philadelphia Museum of Art", "lat": 39.9656, "lon": -75.1810},
        {"name": "Museo de Arte Moderno (Mexico City)", "lat": 19.4254, "lon": -99.1818},
        {"name": "National Museum of Modern and Contemporary Art (Seoul)", "lat": 37.5790, "lon": 126.9750},
        {"name": "Museum of Fine Arts (Boston)", "lat": 42.3394, "lon": -71.0940},
        {"name": "Alte Pinakothek", "lat": 48.1482, "lon": 11.5700},
        {"name": "Queensland Art Gallery", "lat": -27.4705, "lon": 153.0179},
        {"name": "San Francisco Museum of Modern Art (SFMOMA)", "lat": 37.7857, "lon": -122.4011},
        {"name": "Museo di Capodimonte", "lat": 40.8672, "lon": 14.2505},
        {"name": "Kroller-Muller Museum", "lat": 52.0956, "lon": 5.8167},
        {"name": "Museu de Arte de Sao Paulo (MASP)", "lat": -23.5614, "lon": -46.6559},
        {"name": "National Gallery of Canada", "lat": 45.4295, "lon": -75.6989},
        {"name": "Pinacoteca do Estado de Sao Paulo", "lat": -23.5346, "lon": -46.6340},
        {"name": "Los Angeles County Museum of Art (LACMA)", "lat": 34.0639, "lon": -118.3590},
        {"name": "Museum of Contemporary Art (Sydney)", "lat": -33.8599, "lon": 151.2090},
        {"name": "Belvedere Museum", "lat": 48.1915, "lon": 16.3808},
        {"name": "Detroit Institute of Arts", "lat": 42.3594, "lon": -83.0645},
        {"name": "Kunsthaus Zurich", "lat": 47.3705, "lon": 8.5480},
        {"name": "Museo de Bellas Artes de Sevilla", "lat": 37.3927, "lon": -5.9996},
        {"name": "National Museum of Western Art (Tokyo)", "lat": 35.7156, "lon": 139.7758},
        {"name": "Museum of Fine Arts (Budapest)", "lat": 47.5159, "lon": 19.0771},
        {"name": "Tretyakov Gallery", "lat": 55.7415, "lon": 37.6208},
        {"name": "Museo de Arte Contemporaneo (Barcelona)", "lat": 41.3833, "lon": 2.1669},
        {"name": "National Portrait Gallery (London)", "lat": 51.5094, "lon": -0.1280},
        {"name": "Hirshhorn Museum and Sculpture Garden", "lat": 38.8882, "lon": -77.0329},
        {"name": "Museo de Arte de Ponce", "lat": 18.0038, "lon": -66.6170},
        {"name": "Moderna Museet (Stockholm)", "lat": 59.3260, "lon": 18.0838},
        {"name": "Museo Nacional de Arte (Mexico City)", "lat": 19.4361, "lon": -99.1392},
        {"name": "National Gallery of Ireland", "lat": 53.3409, "lon": -6.2525},
        {"name": "Museum of Contemporary Art (Chicago)", "lat": 41.8972, "lon": -87.6212},
        {"name": "Fondation Beyeler", "lat": 47.5878, "lon": 7.6512},
        {"name": "Museo de Bellas Artes (Valencia)", "lat": 39.4789, "lon": -0.3750},
        {"name": "National Museum of Art (Osaka)", "lat": 34.7020, "lon": 135.4958},
        {"name": "Museo de Arte Moderno de Bogotá", "lat": 4.6059, "lon": -74.0731},
        {"name": "Kiasma Museum of Contemporary Art", "lat": 60.1718, "lon": 24.9366},
        {"name": "Museu Nacional d'Art de Catalunya", "lat": 41.3684, "lon": 2.1536},
        {"name": "National Gallery of Scotland", "lat": 55.9509, "lon": -3.1956},
        {"name": "Museum of Fine Arts (Houston)", "lat": 29.7257, "lon": -95.3905},
        {"name": "Museo de Arte Carrillo Gil", "lat": 19.3478, "lon": -99.1856},
        {"name": "Art Gallery of New South Wales", "lat": -33.8688, "lon": 151.2173},
        {"name": "Museo de Arte Español Enrique Larreta", "lat": -34.5618, "lon": -58.4512},
        {"name": "National Museum of Contemporary Art (Athens)", "lat": 37.9942, "lon": 23.7328},
        {"name": "Museo de Bellas Artes de Bilbao", "lat": 43.2650, "lon": -2.9366},
        {"name": "Museum of Modern Art (Kuwait)", "lat": 29.3697, "lon": 47.9635},
        {"name": "Museo de Arte de Lima", "lat": -12.0602, "lon": -77.0375},
        {"name": "National Art Gallery (Islamabad)", "lat": 33.7362, "lon": 73.0845}
    ]
}